{"version": 0.6, "generator": "Overpass API 0.7.62.5 1bd436f1", "osm3s": {"timestamp_osm_base": "2025-05-15T16:53:30Z", "copyright": "The data included in this document is from www.openstreetmap.org. The data is made available under ODbL."}, "elements": [{"type": "node", "id": 1697822274, "lat": 30.3179409, "lon": 78.0500178, "tags": {"amenity": "hospital", "emergency": "yes", "name": "Heart Clinic"}}, {"type": "node", "id": 1697822276, "lat": 30.319395, "lon": 78.0503182, "tags": {"amenity": "hospital", "emergency": "yes", "name": "General Hospital"}}, {"type": "node", "id": 1697822631, "lat": 30.3250628, "lon": 78.0540411, "tags": {"amenity": "police", "name": "Daalanwala Police Station"}}, {"type": "node", "id": 1854105148, "lat": 30.3121892, "lon": 78.0474883, "tags": {"amenity": "hospital", "name": "CMI"}}, {"type": "node", "id": 1854138785, "lat": 30.3257766, "lon": 78.0428731, "tags": {"amenity": "police", "designation": "DHARA CHOWKI", "name": "Police Station"}}, {"type": "node", "id": 3519362070, "lat": 30.3301055, "lon": 78.0503148, "tags": {"amenity": "police", "name": "Police Nideshalaya"}}, {"type": "node", "id": 4254504792, "lat": 30.3196005, "lon": 78.0422984, "tags": {"addr:district": "Dehradun", "addr:full": "Near Mkp Inter College", "addr:postcode": "248001", "addr:state": "Uttarakhand", "amenity": "hospital", "name": "Government Doon Hospital", "opening_hours": "Mo-Sa", "source": "OpenGovernmentData"}}, {"type": "node", "id": 4255814491, "lat": 30.3184253, "lon": 78.0424823, "tags": {"addr:city": "Dehradun", "addr:housenumber": "Shop No 28,", "addr:postcode": "248001", "addr:street": "Meedo Arcade Adjacent to Pine Hall School", "amenity": "hospital", "emergency": "yes", "healthcare:speciality": "wedding", "name": "wedding by fourth munky"}}, {"type": "node", "id": 6581821447, "lat": 30.3207776, "lon": 78.0576667, "tags": {"addr:block": "Raipur", "addr:district": "Dehradun", "addr:full": "Kharjan Road", "addr:postcode": "248001", "addr:state": "Uttarakhand", "amenity": "hospital", "healthcare": "hospital", "healthcare:speciality": "general", "name": "Deen Dayal Upadhyay hospital", "source": "OpenGovernmentData"}}, {"type": "node", "id": 6950904473, "lat": 30.3163536, "lon": 78.054412, "tags": {"addr:district": "Dehradun", "addr:full": "22, Curzun ( Nehru Road) Near Convent School Avas Vikas Bhawan", "addr:postcode": "248001", "addr:state": "Uttarakhand", "amenity": "hospital", "name": "Yash Respiratory and Medical Disease Centre", "source": "OpenGovernmentData"}}, {"type": "node", "id": 6951986574, "lat": 30.3112213, "lon": 78.04785, "tags": {"addr:district": "Dehradun", "addr:full": "Govind Nagar,Race Course", "addr:postcode": "248001", "addr:state": "Uttarakhand", "amenity": "hospital", "name": "Guru Teg Bahadur Sahib Hospital", "source": "OpenGovernmentData"}}, {"type": "node", "id": 6952104642, "lat": 30.3316376, "lon": 78.0538367, "tags": {"addr:district": "Dehradun", "addr:full": "4,Old Survey Road", "addr:postcode": "248001", "addr:state": "Uttarakhand", "amenity": "hospital", "healthcare": "hospital", "name": "Jan Kalyan Hospital And Research Insititute", "source": "OpenGovernmentData"}}, {"type": "node", "id": 6952139077, "lat": 30.3143113, "lon": 78.0523923, "tags": {"addr:district": "Dehradun", "addr:full": "8 Inder Road", "addr:postcode": "248001", "addr:state": "Uttarakhand", "amenity": "hospital", "name": "Kamra`s Urinary and Surgical Diseasea Centre", "source": "OpenGovernmentData"}}, {"type": "node", "id": 6953276771, "lat": 30.3184444, "lon": 78.0290544, "tags": {"addr:district": "Dehradun", "addr:full": "Saharanpur Chowk", "addr:postcode": "248001", "addr:state": "Uttarakhand", "amenity": "hospital", "healthcare": "hospital", "name": "Ashadeep Hospital", "source": "OpenGovernmentData"}}, {"type": "node", "id": 6953301797, "lat": 30.3153417, "lon": 78.0512014, "tags": {"addr:district": "Dehradun", "addr:full": "7,Inder Road", "addr:postcode": "248001", "addr:state": "Uttarakhand", "amenity": "hospital", "name": "Sharda Surgical and Urology Centre", "source": "OpenGovernmentData"}}, {"type": "node", "id": 6953930189, "lat": 30.3175726, "lon": 78.0333661, "tags": {"addr:district": "Dehradun", "addr:full": "1 Darshani Gate", "addr:postcode": "248001", "addr:state": "Uttarakhand", "amenity": "hospital", "name": "Garg ENT and Dental Clinic", "source": "OpenGovernmentData"}}, {"type": "node", "id": 6953935730, "lat": 30.3152005, "lon": 78.0513221, "tags": {"addr:district": "Dehradun", "addr:full": "No. 7, Inder Road, Dalanwala", "addr:postcode": "248001", "addr:state": "Uttarakhand", "amenity": "hospital", "name": "Renal Care and Dialysis Center", "source": "OpenGovernmentData"}}, {"type": "node", "id": 6957204721, "lat": 30.3119982, "lon": 78.0480015, "tags": {"addr:district": "Dehradun", "addr:full": "55, Hardwar Road", "addr:postcode": "248001", "addr:state": "Uttarakhand", "amenity": "hospital", "name": "Doon Valley Hospital", "source": "OpenGovernmentData"}}, {"type": "node", "id": 6957931047, "lat": 30.3288236, "lon": 78.0524835, "tags": {"addr:district": "Dehradun", "addr:full": "12, East Canal Road", "addr:postcode": "248001", "addr:state": "Uttarakhand", "amenity": "hospital", "healthcare": "hospital", "name": "S. K. Memorial Hospital", "source": "OpenGovernmentData"}}, {"type": "node", "id": 7479937227, "lat": 30.3191611, "lon": 78.0430172, "tags": {"addr:district": "Dehradun", "addr:full": "6, New Road, Near Doon Hospital, Race Course", "addr:postcode": "248001", "addr:state": "Uttarakhand", "amenity": "hospital", "name": "Aarogyadham Super Speciality Hospital", "source": "Local Knowledge"}}, {"type": "node", "id": 7479937256, "lat": 30.3167914, "lon": 78.0437622, "tags": {"addr:district": "Dehradun", "addr:full": "54, Haridwar Road, Guru Nanak Vihar, Race Course, Dehradun", "addr:postcode": "248001", "addr:state": "Uttarakhand", "amenity": "hospital", "name": "CMI Hospital", "source": "Local Knowledge"}}, {"type": "node", "id": 7479937286, "lat": 30.3174427, "lon": 78.046923, "tags": {"addr:district": "Dehradun", "addr:full": "17-C, New Road, Near Mkp College, Race Course", "addr:postcode": "248001", "addr:state": "Uttarakhand", "amenity": "hospital", "name": "Dr. Ajay Sharma Hospital", "source": "Local Knowledge"}}, {"type": "node", "id": 7479937303, "lat": 30.3196861, "lon": 78.0503125, "tags": {"addr:district": "Dehradun", "addr:full": "17, Cross Road, Race Course, Dehradun", "addr:postcode": "248001", "addr:state": "Uttarakhand", "amenity": "hospital", "name": "City Heart Centre", "source": "Local Knowledge"}}, {"type": "node", "id": 7479937304, "lat": 30.3299169, "lon": 78.0299292, "tags": {"addr:district": "Dehradun", "addr:full": "58, Chakarata Road, Beside Hp Petrol Pump, Prem Nagar", "addr:postcode": "248001", "addr:state": "Uttarakhand", "amenity": "hospital", "name": "Luthra Maternity & Infertility Centre", "source": "Local Knowledge"}}, {"type": "node", "id": 7479937323, "lat": 30.320661, "lon": 78.057667, "tags": {"addr:district": "Dehradun", "addr:full": "2nd Floor, Coronation Hospital, Curzon Road, Dalanwala, Dehradun", "addr:postcode": "248001", "addr:state": "Uttarakhand", "amenity": "hospital", "name": "Fortis Escorts Hospital, Dehradun", "source": "Local Knowledge"}}, {"type": "node", "id": 8818519318, "lat": 30.3206193, "lon": 78.0417924, "tags": {"addr:postcode": "248001", "addr:street": "Nardev Shastri Marg", "amenity": "hospital", "email": "artdoon@gmail.com", "name": "\u090f.\u0906\u0930.\u091f\u0940. \u092a\u094d\u0932\u0938 \u0915\u0947\u0902\u0926\u094d\u0930", "name:en": "ART Plus Centre", "phone": "0135-2655529"}}, {"type": "node", "id": 9385639317, "lat": 30.3206591, "lon": 78.0418042, "tags": {"amenity": "hospital", "name": "ART Plus Centre Doon Hospital"}}]}